[
  { "name": "Dubai", "country": "United Arab Emirates", "lat": 25.276987, "lon": 55.296249 },
  { "name": "New York", "country": "United States", "lat": 40.712776, "lon": -74.005974 },
  { "name": "London", "country": "United Kingdom", "lat": 51.507351, "lon": -0.127758 },
  { "name": "Tokyo", "country": "Japan", "lat": 35.689487, "lon": 139.691711 },
  { "name": "Sydney", "country": "Australia", "lat": -33.868820, "lon": 151.209290 },
  { "name": "Paris", "country": "France", "lat": 48.856613, "lon": 2.352222 },
  { "name": "Cairo", "country": "Egypt", "lat": 30.044420, "lon": 31.235712 },
  { "name": "Moscow", "country": "Russia", "lat": 55.755825, "lon": 37.617298 },
  { "name": "Rio de Janeiro", "country": "Brazil", "lat": -22.906847, "lon": -43.172897 },
  { "name": "Beijing", "country": "China", "lat": 39.904202, "lon": 116.407394 },
  { "name": "Mumbai", "country": "India", "lat": 19.076090, "lon": 72.877426 },
  { "name": "Berlin", "country": "Germany", "lat": 52.520008, "lon": 13.404954 },
  { "name": "Toronto", "country": "Canada", "lat": 43.651070, "lon": -79.347015 },
  { "name": "Cape Town", "country": "South Africa", "lat": -33.924870, "lon": 18.424055 },
  { "name": "Singapore", "country": "Singapore", "lat": 1.352083, "lon": 103.819839 },
  { "name": "Los Angeles", "country": "United States", "lat": 34.052235, "lon": -118.243683 },
  { "name": "Madrid", "country": "Spain", "lat": 40.416775, "lon": -3.703790 },
  { "name": "Rome", "country": "Italy", "lat": 41.902782, "lon": 12.496366 },
  { "name": "Istanbul", "country": "Turkey", "lat": 41.008240, "lon": 28.978359 },
  { "name": "Bangkok", "country": "Thailand", "lat": 13.756331, "lon": 100.501762 }
]
